{"type":"FeatureCollection","features":[{"type":"Feature","properties":{"id":1,"name":"Police headquarters in Kuala Langat","type":4,"RecoveryCapacity":1,"RecoveryTime":1,"RecoveryCost":1},"geometry":{"type":"Point","coordinates":[101.4944861,2.80495]}},{"type":"Feature","properties":{"id":2,"name":"Banting Fire and Rescue Station","type":5,"RecoveryCapacity":1,"RecoveryTime":1,"RecoveryCost":1},"geometry":{"type":"Point","coordinates":[101.5058569,2.8145504]}},{"type":"Feature","properties":{"id":3,"name":"Klinik Desa Morib","type":2,"RecoveryCapacity":1,"RecoveryTime":1,"RecoveryCost":1},"geometry":{"type":"Point","coordinates":[101.4472454,2.7465054]}},{"type":"Feature","properties":{"id":4,"name":"Klinik Kesihatan Kanchong Darat","type":2,"RecoveryCapacity":1,"RecoveryTime":1,"RecoveryCost":1},"geometry":{"type":"Point","coordinates":[101.4885906,2.7888128]}},{"type":"Feature","properties":{"id":5,"name":"Banting Health Office","type":1,"RecoveryCapacity":1,"RecoveryTime":1,"RecoveryCost":1},"geometry":{"type":"Point","coordinates":[101.493342,2.80222]}},{"type":"Feature","properties":{"id":6,"name":"Pusat Promosi Kesihatan Komuniti","type":1,"RecoveryCapacity":1,"RecoveryTime":1,"RecoveryCost":1},"geometry":{"type":"Point","coordinates":[101.5172342,2.8189276]}},{"type":"Feature","properties":{"id":7,"name":"Klinik Kesihatan Telok Datok","type":2,"RecoveryCapacity":1,"RecoveryTime":1,"RecoveryCost":1},"geometry":{"type":"Point","coordinates":[101.5175279,2.819548]}},{"type":"Feature","properties":{"id":8,"name":"Klinik Kesihatan Kampung Bandar","type":2,"RecoveryCapacity":1,"RecoveryTime":1,"RecoveryCost":1},"geometry":{"type":"Point","coordinates":[101.4444968,2.851134]}},{"type":"Feature","properties":{"id":9,"name":"Klinik Kesihatan Jenjarom","type":2,"RecoveryCapacity":1,"RecoveryTime":1,"RecoveryCost":1},"geometry":{"type":"Point","coordinates":[101.5004566,2.8784339]}},{"type":"Feature","properties":{"id":10,"name":"Jabatan Pertahanan Awam Malaysia","type":4,"RecoveryCapacity":1,"RecoveryTime":1,"RecoveryCost":1},"geometry":{"type":"Point","coordinates":[101.4446913,2.7539652]}},{"type":"Feature","properties":{"id":11,"name":"PPU MORIB","type":3,"RecoveryCapacity":1,"RecoveryTime":1,"RecoveryCost":1},"geometry":{"type":"Point","coordinates":[101.4456159,2.7495956]}},{"type":"Feature","properties":{"id":12,"name":"Genting Sanyen Power Sdn Bhd","type":5,"RecoveryCapacity":1,"RecoveryTime":1,"RecoveryCost":1},"geometry":{"type":"Point","coordinates":[101.495796,2.803589]}},{"type":"Feature","properties":{"id":13,"name":"PMU BANTING","type":3,"RecoveryCapacity":1,"RecoveryTime":1,"RecoveryCost":1},"geometry":{"type":"Point","coordinates":[101.5357937,2.8346014]}},{"type":"Feature","properties":{"id":14,"name":"Pmu Olak Lempit","type":3,"RecoveryCapacity":1,"RecoveryTime":1,"RecoveryCost":1},"geometry":{"type":"Point","coordinates":[101.5790202,2.8460588]}},{"type":"Feature","properties":{"id":15,"name":"Titron Rubber Industries (M) Sdn Bhd","type":4,"RecoveryCapacity":1,"RecoveryTime":1,"RecoveryCost":1},"geometry":{"type":"Point","coordinates":[101.4705759,2.8499104]}},{"type":"Feature","properties":{"id":16,"name":"NY CONTAINER SPECIALIST SDN. BHD.","type":4,"RecoveryCapacity":1,"RecoveryTime":1,"RecoveryCost":1},"geometry":{"type":"Point","coordinates":[101.50903,2.863436]}},{"type":"Feature","properties":{"id":17,"name":"Express Mix Concrete (M) S/B","type":4,"RecoveryCapacity":1,"RecoveryTime":1,"RecoveryCost":1},"geometry":{"type":"Point","coordinates":[101.5163578,2.8550036]}},{"type":"Feature","properties":{"id":18,"name":"Boh Plantation Sdn Bhd","type":4,"RecoveryCapacity":1,"RecoveryTime":1,"RecoveryCost":1},"geometry":{"type":"Point","coordinates":[101.5766099,2.915919]}},{"type":"Feature","properties":{"id":19,"name":"SHOWA DENKO CARBON Malaysia Sdn. Bhd.","type":4,"RecoveryCapacity":1,"RecoveryTime":1,"RecoveryCost":1},"geometry":{"type":"Point","coordinates":[101.5533646,2.8339468]}},{"type":"Feature","properties":{"id":20,"name":"Kilang Kopi Fama","type":3,"RecoveryCapacity":1,"RecoveryTime":1,"RecoveryCost":1},"geometry":{"type":"Point","coordinates":[101.4781128,2.7806734]}},{"type":"Feature","properties":{"id":21,"name":"Bridgex Sdn. Bhd (Precast Factory)","type":4,"RecoveryCapacity":1,"RecoveryTime":1,"RecoveryCost":1},"geometry":{"type":"Point","coordinates":[101.599467,2.8251682]}},{"type":"Feature","properties":{"id":22,"name":"Ice Factory","type":4,"RecoveryCapacity":1,"RecoveryTime":1,"RecoveryCost":1},"geometry":{"type":"Point","coordinates":[101.6318205,2.8265261]}},{"type":"Feature","properties":{"id":23,"name":"Genting Sanyen Power Sdn Bhd","type":4,"RecoveryCapacity":1,"RecoveryTime":1,"RecoveryCost":1},"geometry":{"type":"Point","coordinates":[101.649799,2.79789]}},{"type":"Feature","properties":{"id":24,"name":"GS Paperboard & Packaging Sdn Bhd","type":4,"RecoveryCapacity":1,"RecoveryTime":1,"RecoveryCost":1},"geometry":{"type":"Point","coordinates":[101.651312,2.802718]}},{"type":"Feature","properties":{"id":25,"name":"TNB Large Scale Solar Farm","type":5,"RecoveryCapacity":1,"RecoveryTime":1,"RecoveryCost":1},"geometry":{"type":"Point","coordinates":[101.6152862,2.7885771]}},{"type":"Feature","properties":{"id":26,"name":"Kuala Langat Power Plant","type":5,"RecoveryCapacity":1,"RecoveryTime":1,"RecoveryCost":1},"geometry":{"type":"Point","coordinates":[101.648849,2.798169]}},{"type":"Feature","properties":{"id":27,"name":"SYABAS Kuala Langat","type":2,"RecoveryCapacity":1,"RecoveryTime":1,"RecoveryCost":1},"geometry":{"type":"Point","coordinates":[101.5219313,2.8196628]}}]}